{
"type": "FeatureCollection",
"name": "Public_Libraries",
"crs": { "type": "name", "properties": { "name": "urn:ogc:def:crs:OGC:1.3:CRS84" } },
"features": [
{ "type": "Feature", "properties": { "OBJECTID_1": 1, "OBJECTID": 5, "LIBRARIES_": 5, "DISTRICT": " ", "ST_ADDRESS": "151 Cambridge St", "BRANCH": "West End", "ZIPCODE": "02114", "x": -71.06501, "y": 42.36145 }, "geometry": { "type": "Point", "coordinates": [ -71.065006409545546, 42.361446684455274 ] } },
{ "type": "Feature", "properties": { "OBJECTID_1": 2, "OBJECTID": 11, "LIBRARIES_": 11, "DISTRICT": " ", "ST_ADDRESS": "690 Washington St", "BRANCH": "Codman Square", "ZIPCODE": "02124", "x": -71.07097, "y": 42.28752 }, "geometry": { "type": "Point", "coordinates": [ -71.070968053188679, 42.287519203629671 ] } },
{ "type": "Feature", "properties": { "OBJECTID_1": 3, "OBJECTID": 17, "LIBRARIES_": 17, "DISTRICT": "HYDE PARK", "ST_ADDRESS": "35 Harvard Av", "BRANCH": "Hyde Park", "ZIPCODE": "02136", "x": -71.12214, "y": 42.2571 }, "geometry": { "type": "Point", "coordinates": [ -71.122135805346076, 42.257104012218086 ] } },
{ "type": "Feature", "properties": { "OBJECTID_1": 4, "OBJECTID": 18, "LIBRARIES_": 18, "DISTRICT": "JAMAICA PLAIN", "ST_ADDRESS": "433 Centre St", "BRANCH": "Connolly", "ZIPCODE": "02130", "x": -71.1111, "y": 42.32065 }, "geometry": { "type": "Point", "coordinates": [ -71.111098666378751, 42.320645768833877 ] } },
{ "type": "Feature", "properties": { "OBJECTID_1": 5, "OBJECTID": 22, "LIBRARIES_": 22, "DISTRICT": "ROXBURY", "ST_ADDRESS": "149 Dudley St", "BRANCH": "Roxbury", "ZIPCODE": "02119", "x": -71.08385, "y": 42.32849 }, "geometry": { "type": "Point", "coordinates": [ -71.083850260665798, 42.328489904211558 ] } },
{ "type": "Feature", "properties": { "OBJECTID_1": 6, "OBJECTID": 1, "LIBRARIES_": 1, "DISTRICT": "COPLEY SQUARE", "ST_ADDRESS": "700 Boylston St", "BRANCH": "Central", "ZIPCODE": "02116", "x": -71.07887, "y": 42.34944 }, "geometry": { "type": "Point", "coordinates": [ -71.078869294034931, 42.349435136605372 ] } },
{ "type": "Feature", "properties": { "OBJECTID_1": 7, "OBJECTID": 3, "LIBRARIES_": 3, "DISTRICT": " ", "ST_ADDRESS": "25 Parmenter St", "BRANCH": "North End", "ZIPCODE": "02113", "x": -71.05502, "y": 42.36408 }, "geometry": { "type": "Point", "coordinates": [ -71.055024906168327, 42.364079862870447 ] } },
{ "type": "Feature", "properties": { "OBJECTID_1": 8, "OBJECTID": 4, "LIBRARIES_": 4, "DISTRICT": " ", "ST_ADDRESS": "685 Tremont St", "BRANCH": "South End", "ZIPCODE": "02118", "x": -71.07703, "y": 42.34133 }, "geometry": { "type": "Point", "coordinates": [ -71.077032008366871, 42.341332133700639 ] } },
{ "type": "Feature", "properties": { "OBJECTID_1": 9, "OBJECTID": 6, "LIBRARIES_": 6, "DISTRICT": "BRIGHTON", "ST_ADDRESS": "300 North Harvard St", "BRANCH": "Honan-Allston", "ZIPCODE": "02134", "x": -71.12811, "y": 42.36011 }, "geometry": { "type": "Point", "coordinates": [ -71.128107002828926, 42.36011296149519 ] } },
{ "type": "Feature", "properties": { "OBJECTID_1": 10, "OBJECTID": 7, "LIBRARIES_": 7, "DISTRICT": " ", "ST_ADDRESS": "40 Academy Hill Rd", "BRANCH": "Brighton", "ZIPCODE": "02135", "x": -71.15291, "y": 42.34769 }, "geometry": { "type": "Point", "coordinates": [ -71.152906561287637, 42.347685498354302 ] } },
{ "type": "Feature", "properties": { "OBJECTID_1": 11, "OBJECTID": 8, "LIBRARIES_": 8, "DISTRICT": " ", "ST_ADDRESS": "419 Faneuil St", "BRANCH": "Faneuil", "ZIPCODE": "02135", "x": -71.16788, "y": 42.35132 }, "geometry": { "type": "Point", "coordinates": [ -71.167878112268923, 42.351322653121237 ] } },
{ "type": "Feature", "properties": { "OBJECTID_1": 12, "OBJECTID": 9, "LIBRARIES_": 9, "DISTRICT": "CHARLESTOWN", "ST_ADDRESS": "179 Main St", "BRANCH": "Charlestown", "ZIPCODE": "02129", "x": -71.06444, "y": 42.37582 }, "geometry": { "type": "Point", "coordinates": [ -71.064438375999231, 42.375816432973785 ] } },
{ "type": "Feature", "properties": { "OBJECTID_1": 13, "OBJECTID": 10, "LIBRARIES_": 10, "DISTRICT": "DORCHESTER", "ST_ADDRESS": "690 Adams St", "BRANCH": "Adams Street", "ZIPCODE": "02122", "x": -71.05441, "y": 42.28627 }, "geometry": { "type": "Point", "coordinates": [ -71.054405147830735, 42.286273799518533 ] } },
{ "type": "Feature", "properties": { "OBJECTID_1": 14, "OBJECTID": 12, "LIBRARIES_": 12, "DISTRICT": " ", "ST_ADDRESS": "1520 Dorchester Av", "BRANCH": "Fields Corner", "ZIPCODE": "02122", "x": -71.06031, "y": 42.29889 }, "geometry": { "type": "Point", "coordinates": [ -71.060306505029715, 42.298885456934123 ] } },
{ "type": "Feature", "properties": { "OBJECTID_1": 15, "OBJECTID": 13, "LIBRARIES_": 13, "DISTRICT": " ", "ST_ADDRESS": "27 Richmond St", "BRANCH": "Lower Mills", "ZIPCODE": "02124", "x": -71.06851, "y": 42.27355 }, "geometry": { "type": "Point", "coordinates": [ -71.068508917134423, 42.273551459900666 ] } },
{ "type": "Feature", "properties": { "OBJECTID_1": 16, "OBJECTID": 14, "LIBRARIES_": 14, "DISTRICT": " ", "ST_ADDRESS": "500 Columbia Rd", "BRANCH": "Uphams Corner", "ZIPCODE": "02125", "x": -71.06753, "y": 42.31485 }, "geometry": { "type": "Point", "coordinates": [ -71.06753479597073, 42.314853698048267 ] } },
{ "type": "Feature", "properties": { "OBJECTID_1": 17, "OBJECTID": 15, "LIBRARIES_": 15, "DISTRICT": "EAST BOSTON", "ST_ADDRESS": "365 Bremen St", "BRANCH": "East Boston", "ZIPCODE": "02128", "x": -71.02858, "y": 42.37777 }, "geometry": { "type": "Point", "coordinates": [ -71.028577242521862, 42.377766335026557 ] } },
{ "type": "Feature", "properties": { "OBJECTID_1": 18, "OBJECTID": 19, "LIBRARIES_": 19, "DISTRICT": " ", "ST_ADDRESS": "12 Sedgwick St", "BRANCH": "Jamaica Plain", "ZIPCODE": "02130", "x": -71.11488, "y": 42.30863 }, "geometry": { "type": "Point", "coordinates": [ -71.114878499297333, 42.308633746155223 ] } },
{ "type": "Feature", "properties": { "OBJECTID_1": 19, "OBJECTID": 20, "LIBRARIES_": 20, "DISTRICT": "MATTAPAN", "ST_ADDRESS": "1350 Blue Hill Avenue", "BRANCH": "Mattapan", "ZIPCODE": "02126", "x": -71.09314, "y": 42.27752 }, "geometry": { "type": "Point", "coordinates": [ -71.093139832733343, 42.277523969736684 ] } },
{ "type": "Feature", "properties": { "OBJECTID_1": 20, "OBJECTID": 21, "LIBRARIES_": 21, "DISTRICT": "ROSLINDALE", "ST_ADDRESS": "4246 Washington St", "BRANCH": "Roslindale", "ZIPCODE": "02131", "x": -71.12865, "y": 42.28565 }, "geometry": { "type": "Point", "coordinates": [ -71.12865457022977, 42.285647482740309 ] } },
{ "type": "Feature", "properties": { "OBJECTID_1": 21, "OBJECTID": 23, "LIBRARIES_": 23, "DISTRICT": " ", "ST_ADDRESS": "2044 Columbus Av", "BRANCH": "Egleston Square", "ZIPCODE": "02119", "x": -71.09563, "y": 42.31406 }, "geometry": { "type": "Point", "coordinates": [ -71.095632187100776, 42.314056781272697 ] } },
{ "type": "Feature", "properties": { "OBJECTID_1": 22, "OBJECTID": 24, "LIBRARIES_": 24, "DISTRICT": " ", "ST_ADDRESS": "41 Geneva Ave", "BRANCH": "Grove Hall", "ZIPCODE": "02121", "x": -71.08119, "y": 42.30799 }, "geometry": { "type": "Point", "coordinates": [ -71.0811937657854, 42.307987726976577 ] } },
{ "type": "Feature", "properties": { "OBJECTID_1": 23, "OBJECTID": 25, "LIBRARIES_": 25, "DISTRICT": " ", "ST_ADDRESS": "1497 Tremont St", "BRANCH": "Parker Hill", "ZIPCODE": "02120", "x": -71.09908, "y": 42.33246 }, "geometry": { "type": "Point", "coordinates": [ -71.099079461190684, 42.332461368347538 ] } },
{ "type": "Feature", "properties": { "OBJECTID_1": 24, "OBJECTID": 27, "LIBRARIES_": 27, "DISTRICT": "WEST ROXBURY", "ST_ADDRESS": "1961 Centre St", "BRANCH": "West Roxbury", "ZIPCODE": "02132", "x": -71.15745, "y": 42.2834 }, "geometry": { "type": "Point", "coordinates": [ -71.157450111787327, 42.283395745608061 ] } },
{ "type": "Feature", "properties": { "OBJECTID_1": 25, "OBJECTID": 28, "LIBRARIES_": 28, "DISTRICT": " SOUTH BOSTON", "ST_ADDRESS": "646 East Broadway", "BRANCH": "South Boston", "ZIPCODE": "02127", "x": -71.03872, "y": 42.33584 }, "geometry": { "type": "Point", "coordinates": [ -71.038718591858071, 42.335836037093181 ] } },
{ "type": "Feature", "properties": { "OBJECTID_1": 27, "OBJECTID": null, "LIBRARIES_": null, "DISTRICT": "CHINATOWN", "ST_ADDRESS": "2 Boylston St", "BRANCH": "Chinatown", "ZIPCODE": "02116", "x": -71.06306, "y": 42.35214 }, "geometry": { "type": "Point", "coordinates": [ -71.063056666006688, 42.352142932207343 ] } }
]
}
